{
  "type": "FeatureCollection",
  "name": "esg",
  "metadata": {"source": "Corporate sustainability reports: Google / Microsoft / Amazon / Meta / TSMC (2023-2024)", "updated": "2026-05-04"},
  "features": [
    {"type": "Feature", "geometry": {"type": "Point", "coordinates": [-95.8608, 41.2619]}, "properties": {"id": "esg-gcp-us-central1-2023", "facility_id": "gcp-us-central1", "operator": "Google", "facility_name": "Council Bluffs, IA", "year": 2023, "energy_mwh": 3626000.0000000005, "water_m3": 3906000.0000000005, "provenance": {"sources": ["https://sustainability.google/reports/google-2024-environmental-report/"], "updated": "2026-05-04", "confidence": 0.65}, "country": "US", "pue": 1.1}},
    {"type": "Feature", "geometry": {"type": "Point", "coordinates": [-80.0103, 33.1959]}, "properties": {"id": "esg-gcp-us-east1-2023", "facility_id": "gcp-us-east1", "operator": "Google", "facility_name": "Moncks Corner, SC", "year": 2023, "energy_mwh": 2331000.0, "water_m3": 2511000.0, "provenance": {"sources": ["https://sustainability.google/reports/google-2024-environmental-report/"], "updated": "2026-05-04", "confidence": 0.65}, "country": "US", "pue": 1.1}},
    {"type": "Feature", "geometry": {"type": "Point", "coordinates": [-77.5386, 39.0168]}, "properties": {"id": "esg-gcp-us-east4-2023", "facility_id": "gcp-us-east4", "operator": "Google", "facility_name": "Ashburn, VA", "year": 2023, "energy_mwh": 2331000.0, "water_m3": 2511000.0, "provenance": {"sources": ["https://sustainability.google/reports/google-2024-environmental-report/"], "updated": "2026-05-04", "confidence": 0.65}, "country": "US", "pue": 1.1}},
    {"type": "Feature", "geometry": {"type": "Point", "coordinates": [-96.797, 32.7767]}, "properties": {"id": "esg-gcp-us-south1-2023", "facility_id": "gcp-us-south1", "operator": "Google", "facility_name": "Dallas, TX", "year": 2023, "energy_mwh": 1813000.0000000002, "water_m3": 1953000.0000000002, "provenance": {"sources": ["https://sustainability.google/reports/google-2024-environmental-report/"], "updated": "2026-05-04", "confidence": 0.65}, "country": "US", "pue": 1.1}},
    {"type": "Feature", "geometry": {"type": "Point", "coordinates": [-121.1786, 45.5946]}, "properties": {"id": "esg-gcp-us-west1-2023", "facility_id": "gcp-us-west1", "operator": "Google", "facility_name": "The Dalles, OR", "year": 2023, "energy_mwh": 1554000.0, "water_m3": 1674000.0, "provenance": {"sources": ["https://sustainability.google/reports/google-2024-environmental-report/"], "updated": "2026-05-04", "confidence": 0.65}, "country": "US", "pue": 1.1}},
    {"type": "Feature", "geometry": {"type": "Point", "coordinates": [6.8335, 53.4393]}, "properties": {"id": "esg-gcp-europe-west4-2023", "facility_id": "gcp-europe-west4", "operator": "Google", "facility_name": "Eemshaven, NL", "year": 2023, "energy_mwh": 2331000.0, "water_m3": 2511000.0, "provenance": {"sources": ["https://sustainability.google/reports/google-2024-environmental-report/"], "updated": "2026-05-04", "confidence": 0.65}, "country": "NL", "pue": 1.1}},
    {"type": "Feature", "geometry": {"type": "Point", "coordinates": [3.8178, 50.4719]}, "properties": {"id": "esg-gcp-europe-west1-2023", "facility_id": "gcp-europe-west1", "operator": "Google", "facility_name": "St Ghislain, BE", "year": 2023, "energy_mwh": 1813000.0000000002, "water_m3": 1953000.0000000002, "provenance": {"sources": ["https://sustainability.google/reports/google-2024-environmental-report/"], "updated": "2026-05-04", "confidence": 0.65}, "country": "BE", "pue": 1.1}},
    {"type": "Feature", "geometry": {"type": "Point", "coordinates": [27.1971, 60.5687]}, "properties": {"id": "esg-gcp-europe-north1-2023", "facility_id": "gcp-europe-north1", "operator": "Google", "facility_name": "Hamina, FI", "year": 2023, "energy_mwh": 1295000.0, "water_m3": 1395000.0, "provenance": {"sources": ["https://sustainability.google/reports/google-2024-environmental-report/"], "updated": "2026-05-04", "confidence": 0.65}, "country": "FI", "pue": 1.1}},
    {"type": "Feature", "geometry": {"type": "Point", "coordinates": [120.5162, 24.0517]}, "properties": {"id": "esg-gcp-asia-east1-2023", "facility_id": "gcp-asia-east1", "operator": "Google", "facility_name": "Changhua County, TW", "year": 2023, "energy_mwh": 2072000.0, "water_m3": 2232000.0, "provenance": {"sources": ["https://sustainability.google/reports/google-2024-environmental-report/"], "updated": "2026-05-04", "confidence": 0.65}, "country": "TW", "pue": 1.1}},
    {"type": "Feature", "geometry": {"type": "Point", "coordinates": [103.7, 1.3521]}, "properties": {"id": "esg-gcp-asia-southeast1-2023", "facility_id": "gcp-asia-southeast1", "operator": "Google", "facility_name": "Jurong West, SG", "year": 2023, "energy_mwh": 2072000.0, "water_m3": 2232000.0, "provenance": {"sources": ["https://sustainability.google/reports/google-2024-environmental-report/"], "updated": "2026-05-04", "confidence": 0.65}, "country": "SG", "pue": 1.1}},
    {"type": "Feature", "geometry": {"type": "Point", "coordinates": [-77.4874, 38.9455]}, "properties": {"id": "esg-aws-us-east-1-2023", "facility_id": "aws-us-east-1", "operator": "AWS", "facility_name": "N. Virginia", "year": 2023, "energy_mwh": 8400000.0, "water_m3": 1200000.0, "provenance": {"sources": ["https://sustainability.aboutamazon.com/2023-sustainability-report"], "updated": "2026-05-04", "confidence": 0.65}, "country": "US", "pue": 1.15}},
    {"type": "Feature", "geometry": {"type": "Point", "coordinates": [-121.3153, 45.8399]}, "properties": {"id": "esg-aws-us-west-2-2023", "facility_id": "aws-us-west-2", "operator": "AWS", "facility_name": "Oregon", "year": 2023, "energy_mwh": 3780000.0, "water_m3": 540000.0, "provenance": {"sources": ["https://sustainability.aboutamazon.com/2023-sustainability-report"], "updated": "2026-05-04", "confidence": 0.65}, "country": "US", "pue": 1.15}},
    {"type": "Feature", "geometry": {"type": "Point", "coordinates": [-83.0007, 39.9612]}, "properties": {"id": "esg-aws-us-east-2-2023", "facility_id": "aws-us-east-2", "operator": "AWS", "facility_name": "Ohio", "year": 2023, "energy_mwh": 2520000.0, "water_m3": 360000.0, "provenance": {"sources": ["https://sustainability.aboutamazon.com/2023-sustainability-report"], "updated": "2026-05-04", "confidence": 0.65}, "country": "US", "pue": 1.15}},
    {"type": "Feature", "geometry": {"type": "Point", "coordinates": [-6.2603, 53.3498]}, "properties": {"id": "esg-aws-eu-west-1-2023", "facility_id": "aws-eu-west-1", "operator": "AWS", "facility_name": "Ireland", "year": 2023, "energy_mwh": 3780000.0, "water_m3": 540000.0, "provenance": {"sources": ["https://sustainability.aboutamazon.com/2023-sustainability-report"], "updated": "2026-05-04", "confidence": 0.65}, "country": "IE", "pue": 1.15}},
    {"type": "Feature", "geometry": {"type": "Point", "coordinates": [8.6821, 50.1109]}, "properties": {"id": "esg-aws-eu-central-1-2023", "facility_id": "aws-eu-central-1", "operator": "AWS", "facility_name": "Frankfurt", "year": 2023, "energy_mwh": 2940000.0000000005, "water_m3": 420000.00000000006, "provenance": {"sources": ["https://sustainability.aboutamazon.com/2023-sustainability-report"], "updated": "2026-05-04", "confidence": 0.65}, "country": "DE", "pue": 1.15}},
    {"type": "Feature", "geometry": {"type": "Point", "coordinates": [139.6917, 35.6895]}, "properties": {"id": "esg-aws-ap-northeast-1-2023", "facility_id": "aws-ap-northeast-1", "operator": "AWS", "facility_name": "Tokyo", "year": 2023, "energy_mwh": 2940000.0000000005, "water_m3": 420000.00000000006, "provenance": {"sources": ["https://sustainability.aboutamazon.com/2023-sustainability-report"], "updated": "2026-05-04", "confidence": 0.65}, "country": "JP", "pue": 1.15}},
    {"type": "Feature", "geometry": {"type": "Point", "coordinates": [103.8198, 1.3521]}, "properties": {"id": "esg-aws-ap-southeast-1-2023", "facility_id": "aws-ap-southeast-1", "operator": "AWS", "facility_name": "Singapore", "year": 2023, "energy_mwh": 2940000.0000000005, "water_m3": 420000.00000000006, "provenance": {"sources": ["https://sustainability.aboutamazon.com/2023-sustainability-report"], "updated": "2026-05-04", "confidence": 0.65}, "country": "SG", "pue": 1.15}},
    {"type": "Feature", "geometry": {"type": "Point", "coordinates": [72.8777, 19.076]}, "properties": {"id": "esg-aws-ap-south-1-2023", "facility_id": "aws-ap-south-1", "operator": "AWS", "facility_name": "Mumbai", "year": 2023, "energy_mwh": 1680000.0, "water_m3": 240000.0, "provenance": {"sources": ["https://sustainability.aboutamazon.com/2023-sustainability-report"], "updated": "2026-05-04", "confidence": 0.65}, "country": "IN", "pue": 1.15}},
    {"type": "Feature", "geometry": {"type": "Point", "coordinates": [-77.4874, 38.9455]}, "properties": {"id": "esg-azure-east-us-2023", "facility_id": "azure-east-us", "operator": "Azure", "facility_name": "Virginia", "year": 2023, "energy_mwh": 3304000.0000000005, "water_m3": 1097600.0, "provenance": {"sources": ["https://www.microsoft.com/en-us/corporate-responsibility/sustainability/report"], "updated": "2026-05-04", "confidence": 0.65}, "country": "US", "pue": 1.18}},
    {"type": "Feature", "geometry": {"type": "Point", "coordinates": [-77.4874, 38.9455]}, "properties": {"id": "esg-azure-east-us-2-2023", "facility_id": "azure-east-us-2", "operator": "Azure", "facility_name": "Virginia", "year": 2023, "energy_mwh": 2124000.0, "water_m3": 705600.0, "provenance": {"sources": ["https://www.microsoft.com/en-us/corporate-responsibility/sustainability/report"], "updated": "2026-05-04", "confidence": 0.65}, "country": "US", "pue": 1.18}},
    {"type": "Feature", "geometry": {"type": "Point", "coordinates": [-112.074, 33.4484]}, "properties": {"id": "esg-azure-west-us-3-2023", "facility_id": "azure-west-us-3", "operator": "Azure", "facility_name": "Arizona", "year": 2023, "energy_mwh": 1416000.0, "water_m3": 470400.0, "provenance": {"sources": ["https://www.microsoft.com/en-us/corporate-responsibility/sustainability/report"], "updated": "2026-05-04", "confidence": 0.65}, "country": "US", "pue": 1.18}},
    {"type": "Feature", "geometry": {"type": "Point", "coordinates": [-93.625, 41.5868]}, "properties": {"id": "esg-azure-central-us-2023", "facility_id": "azure-central-us", "operator": "Azure", "facility_name": "Iowa", "year": 2023, "energy_mwh": 1416000.0, "water_m3": 470400.0, "provenance": {"sources": ["https://www.microsoft.com/en-us/corporate-responsibility/sustainability/report"], "updated": "2026-05-04", "confidence": 0.65}, "country": "US", "pue": 1.18}},
    {"type": "Feature", "geometry": {"type": "Point", "coordinates": [-97.7431, 30.2672]}, "properties": {"id": "esg-azure-south-central-us-2023", "facility_id": "azure-south-central-us", "operator": "Azure", "facility_name": "Texas", "year": 2023, "energy_mwh": 1180000.0, "water_m3": 392000.0, "provenance": {"sources": ["https://www.microsoft.com/en-us/corporate-responsibility/sustainability/report"], "updated": "2026-05-04", "confidence": 0.65}, "country": "US", "pue": 1.18}},
    {"type": "Feature", "geometry": {"type": "Point", "coordinates": [-6.2603, 53.3498]}, "properties": {"id": "esg-azure-north-europe-2023", "facility_id": "azure-north-europe", "operator": "Azure", "facility_name": "Dublin", "year": 2023, "energy_mwh": 2124000.0, "water_m3": 705600.0, "provenance": {"sources": ["https://www.microsoft.com/en-us/corporate-responsibility/sustainability/report"], "updated": "2026-05-04", "confidence": 0.65}, "country": "IE", "pue": 1.18}},
    {"type": "Feature", "geometry": {"type": "Point", "coordinates": [4.9041, 52.3676]}, "properties": {"id": "esg-azure-west-europe-2023", "facility_id": "azure-west-europe", "operator": "Azure", "facility_name": "Amsterdam", "year": 2023, "energy_mwh": 1888000.0, "water_m3": 627200.0, "provenance": {"sources": ["https://www.microsoft.com/en-us/corporate-responsibility/sustainability/report"], "updated": "2026-05-04", "confidence": 0.65}, "country": "NL", "pue": 1.18}},
    {"type": "Feature", "geometry": {"type": "Point", "coordinates": [17.1413, 60.6749]}, "properties": {"id": "esg-azure-sweden-central-2023", "facility_id": "azure-sweden-central", "operator": "Azure", "facility_name": "Gävle", "year": 2023, "energy_mwh": 944000.0, "water_m3": 313600.0, "provenance": {"sources": ["https://www.microsoft.com/en-us/corporate-responsibility/sustainability/report"], "updated": "2026-05-04", "confidence": 0.65}, "country": "SE", "pue": 1.18}},
    {"type": "Feature", "geometry": {"type": "Point", "coordinates": [139.6917, 35.6895]}, "properties": {"id": "esg-azure-japan-east-2023", "facility_id": "azure-japan-east", "operator": "Azure", "facility_name": "Tokyo", "year": 2023, "energy_mwh": 1416000.0, "water_m3": 470400.0, "provenance": {"sources": ["https://www.microsoft.com/en-us/corporate-responsibility/sustainability/report"], "updated": "2026-05-04", "confidence": 0.65}, "country": "JP", "pue": 1.18}},
    {"type": "Feature", "geometry": {"type": "Point", "coordinates": [103.8198, 1.3521]}, "properties": {"id": "esg-azure-southeast-asia-2023", "facility_id": "azure-southeast-asia", "operator": "Azure", "facility_name": "Singapore", "year": 2023, "energy_mwh": 1416000.0, "water_m3": 470400.0, "provenance": {"sources": ["https://www.microsoft.com/en-us/corporate-responsibility/sustainability/report"], "updated": "2026-05-04", "confidence": 0.65}, "country": "SG", "pue": 1.18}},
    {"type": "Feature", "geometry": {"type": "Point", "coordinates": [120.2513, 22.9999]}, "properties": {"id": "esg-fab-tsmc-f18-2023", "facility_id": "fab-tsmc-f18", "operator": "TSMC", "facility_name": "Fab 18 (Tainan)", "year": 2023, "energy_mwh": 9100000.0, "water_m3": 32500000.0, "provenance": {"sources": ["https://esg.tsmc.com/download/file/2023_sustainabilityReport/english/e-all.pdf"], "updated": "2026-05-04", "confidence": 0.85}, "country": "TW"}},
    {"type": "Feature", "geometry": {"type": "Point", "coordinates": [120.6478, 24.1477]}, "properties": {"id": "esg-fab-tsmc-f15-2023", "facility_id": "fab-tsmc-f15", "operator": "TSMC", "facility_name": "Fab 15 (Taichung)", "year": 2023, "energy_mwh": 4200000.0, "water_m3": 17100000.0, "provenance": {"sources": ["https://esg.tsmc.com/download/file/2023_sustainabilityReport/english/e-all.pdf"], "updated": "2026-05-04", "confidence": 0.85}, "country": "TW"}},
    {"type": "Feature", "geometry": {"type": "Point", "coordinates": [120.975, 24.7765]}, "properties": {"id": "esg-fab-tsmc-f12-2023", "facility_id": "fab-tsmc-f12", "operator": "TSMC", "facility_name": "Fab 12 (Hsinchu)", "year": 2023, "energy_mwh": 3600000.0, "water_m3": 13400000.0, "provenance": {"sources": ["https://esg.tsmc.com/download/file/2023_sustainabilityReport/english/e-all.pdf"], "updated": "2026-05-04", "confidence": 0.85}, "country": "TW"}},
    {"type": "Feature", "geometry": {"type": "Point", "coordinates": [120.275, 22.926]}, "properties": {"id": "esg-fab-tsmc-f14-2023", "facility_id": "fab-tsmc-f14", "operator": "TSMC", "facility_name": "Fab 14 (Tainan South)", "year": 2023, "energy_mwh": 2800000.0, "water_m3": 10100000.0, "provenance": {"sources": ["https://esg.tsmc.com/download/file/2023_sustainabilityReport/english/e-all.pdf"], "updated": "2026-05-04", "confidence": 0.85}, "country": "TW"}}
  ]
}
